{
    "centers": [
        {
            "name": "Inner Peace Therapy",
            "coordinates": [138.6098, -34.6743]
        },
        {
            "name": "Nurtured Minds",
            "coordinates": [145.3344, -37.7372]
        },
        {
            "name": "Bright Futures Counseling",
            "coordinates": [145.1333, -37.8135]
        },
        {
            "name": "Empowerment Counseling",
            "coordinates": [151.6549, -31.9505]
        },
        {
            "name": "Serenity Counseling Services",
            "coordinates": [144.9631, -37.8136]
        },
        {
            "name": "Healing Pathways",
            "coordinates": [145.0622, -37.648]
        },
        {
            "name": "Mindful Wellness Center",
            "coordinates": [151.2093, -33.8688]
        },
        {
            "name": "Guided Growth Therapy",
            "coordinates": [151.2535, -32.2564]
        },
        {
            "name": "Balanced Mind Clinic",
            "coordinates": [145.0015, -37.5544]
        },
        {
            "name": "Peaceful Hearts Counseling",
            "coordinates": [138.6007, -34.9285]
        },
        {
            "name": "Compassionate Care Center",
            "coordinates": [153.0454, -27.3861]
        },
        {
            "name": "Tranquility Center",
            "coordinates": [138.7026, -35.0142]
        },
        {
            "name": "Resilient Minds Clinic",
            "coordinates": [147.3294, -41.4405]
        },
        {
            "name": "Caring Connections",
            "coordinates": [145.091, -37.9753]
        },
        {
            "name": "Harmony Mental Health Clinic",
            "coordinates": [115.8575, -31.9505]
        },
        {
            "name": "Tranquil Minds Therapy",
            "coordinates": [153.0251, -27.4676]
        },
        {
            "name": "Hopeful Horizons",
            "coordinates": [145.1111, -38.1451]
        },
        {
            "name": "Wholesome Minds Therapy",
            "coordinates": [151.3072, -33.8166]
        },
        {
            "name": "Calm Connections",
            "coordinates": [145.2734, -37.8671]
        },
        {
            "name": "Supportive Spaces",
            "coordinates": [144.7071, -37.7396]
        }
    ],
    "events": [
        {
            "date": "2024-10-18",
            "description": "Join our weekly yoga sessions to improve flexibility, balance, and overall mental health.",
            "time": "18:00",
            "eventName": "Weekly Yoga Class",
            "place": "Health Gym, Melbourne"
        },
        {
            "date": "2024-12-05",
            "description": "A seminar on the importance of mental health awareness in the workplace.",
            "time": "09:00",
            "eventName": "Mental Health in Workplace Seminar",
            "place": "Business Hub, Sydney"
        },
        {
            "date": "2024-09-15",
            "description": "A workshop designed to introduce participants to mindfulness practices that can help reduce daily stress.",
            "time": "18:00",
            "eventName": "Mindfulness Workshop",
            "place": "Community Center, Sydney"
        },
        {
            "date": "2024-10-20",
            "description": "Group therapy session focusing on building resilience and coping skills.",
            "time": "16:00",
            "eventName": "Resilience Building Group Therapy",
            "place": "Mental Health Clinic, Perth"
        },
        {
            "date": "2024-11-15",
            "description": "Interactive workshop on stress management techniques for everyday life.",
            "time": "10:00",
            "eventName": "Stress Management Workshop",
            "place": "Wellness Center, Adelaide"
        },
        {
            "date": "2024-10-25",
            "description": "Engage in creative arts therapy to express emotions through artistic activities.",
            "time": "14:00",
            "eventName": "Creative Arts Therapy",
            "place": "ArtSpace, Brisbane"
        },
        {
            "date": "2024-12-10",
            "description": "An outdoor yoga retreat to connect with nature and nurture mental well-being.",
            "time": "08:00",
            "eventName": "Yoga in the Park",
            "place": "City Park, Melbourne"
        },
        {
            "date": "2024-11-01",
            "description": "Join us for a guided meditation session to promote relaxation and mindfulness.",
            "time": "17:00",
            "eventName": "Guided Meditation",
            "place": "Zen Studio, Melbourne"
        }
    ],
    "articles": [
        {
            "content": "Strengthen your mental resilience by facing challenges head-on, maintaining a growth mindset, and staying connected with support systems.",
            "title": "Enhancing Mental Resilience",
            "tags": ["resilience", "growth", "mental-health"],
            "dateCreated": "2024-10-10T09:30:00.000Z"
        },
        {
            "content": "Learn how practicing gratitude daily can enhance your mental well-being and improve your outlook on life.",
            "title": "The Power of Gratitude",
            "tags": ["gratitude", "mental-health", "positive-mindset"],
            "dateCreated": "2024-10-09T11:30:00.000Z"
        },
        {
            "content": "Learn the importance of self-compassion and how it can positively impact your mental health.",
            "title": "Practicing Self-Compassion",
            "tags": ["self-compassion", "mental-health", "positivity"],
            "dateCreated": "2024-10-07T15:00:00.000Z"
        },
        {
            "content": "Explore strategies to manage and overcome anxiety, such as cognitive behavioral techniques, exposure therapy, and daily journaling.",
            "title": "Overcoming Anxiety",
            "tags": ["anxiety", "therapy", "journaling"],
            "dateCreated": "2024-10-05T09:30:00.000Z"
        },
        {
            "content": "Learn how expressive writing can help you process emotions and gain mental clarity.",
            "title": "Expressive Writing for Mental Clarity",
            "tags": ["writing", "mental-clarity", "expression"],
            "dateCreated": "2024-10-03T13:00:00.000Z"
        },
        {
            "content": "Learn quick and effective techniques to manage daily stress, including breathing exercises, scheduled breaks, and mindfulness practices.",
            "title": "Managing Daily Stress",
            "tags": ["stress", "mindfulness", "daily-health"],
            "dateCreated": "2024-10-01T14:45:00.000Z"
        },
        {
            "content": "Discover practical techniques for reducing screen time and fostering healthier relationships with technology.",
            "title": "Digital Detox Techniques",
            "tags": ["digital-detox", "technology", "mental-health"],
            "dateCreated": "2024-10-01T09:00:00.000Z"
        },
        {
            "content": "Identify signs of burnout and explore strategies to recover, such as prioritizing rest and seeking social support.",
            "title": "Managing Burnout",
            "tags": ["burnout", "recovery", "self-care"],
            "dateCreated": "2024-09-30T16:30:00.000Z"
        }
    ]
}
